[
  {
    "station_id":"REAL_0001",
    "data_source":"Known Infrastructure Database",
    "name":"TATA Power - New Delhi #1",
    "operator":"TATA Power",
    "network":"TATA Power",
    "city":"New Delhi",
    "state":"Delhi",
    "country":"India",
    "latitude":28.622691595,
    "longitude":77.1618162142,
    "power_kw":50.0,
    "charger_type":"DC Fast",
    "connector_type":"CCS, CHAdeMO",
    "access_type":"Public",
    "status":"Operational",
    "estimated_cost_per_kwh":12.0,
    "address":"New Delhi, Delhi",
    "scraped_at":"2025-10-03 13:12:28"
  },
  {
    "station_id":"REAL_0026",
    "data_source":"Known Infrastructure Database",
    "name":"TATA Power - Mumbai #1",
    "operator":"TATA Power",
    "network":"TATA Power",
    "city":"Mumbai",
    "state":"Maharashtra",
    "country":"India",
    "latitude":19.1517642683,
    "longitude":72.8912026264,
    "power_kw":50.0,
    "charger_type":"DC Fast",
    "connector_type":"CCS, CHAdeMO",
    "access_type":"Public",
    "status":"Operational",
    "estimated_cost_per_kwh":12.0,
    "address":"Mumbai, Maharashtra",
    "scraped_at":"2025-10-03 13:12:28"
  },
  {
    "station_id":"REAL_0046",
    "data_source":"Known Infrastructure Database",
    "name":"TATA Power - Bangalore #1",
    "operator":"TATA Power",
    "network":"TATA Power",
    "city":"Bangalore",
    "state":"Karnataka",
    "country":"India",
    "latitude":12.8980941312,
    "longitude":77.5000159829,
    "power_kw":50.0,
    "charger_type":"DC Fast",
    "connector_type":"CCS, CHAdeMO",
    "access_type":"Public",
    "status":"Operational",
    "estimated_cost_per_kwh":12.0,
    "address":"Bangalore, Karnataka",
    "scraped_at":"2025-10-03 13:12:28"
  },
  {
    "station_id":"REAL_0064",
    "data_source":"Known Infrastructure Database",
    "name":"TATA Power - Chennai #1",
    "operator":"TATA Power",
    "network":"TATA Power",
    "city":"Chennai",
    "state":"Tamil Nadu",
    "country":"India",
    "latitude":13.0768588246,
    "longitude":80.2278530949,
    "power_kw":50.0,
    "charger_type":"DC Fast",
    "connector_type":"CCS, CHAdeMO",
    "access_type":"Public",
    "status":"Operational",
    "estimated_cost_per_kwh":12.0,
    "address":"Chennai, Tamil Nadu",
    "scraped_at":"2025-10-03 13:12:28"
  },
  {
    "station_id":"REAL_0079",
    "data_source":"Known Infrastructure Database",
    "name":"TATA Power - Hyderabad #1",
    "operator":"TATA Power",
    "network":"TATA Power",
    "city":"Hyderabad",
    "state":"Telangana",
    "country":"India",
    "latitude":17.4497171537,
    "longitude":78.5258311751,
    "power_kw":50.0,
    "charger_type":"DC Fast",
    "connector_type":"CCS, CHAdeMO",
    "access_type":"Public",
    "status":"Operational",
    "estimated_cost_per_kwh":12.0,
    "address":"Hyderabad, Telangana",
    "scraped_at":"2025-10-03 13:12:28"
  },
  {
    "station_id":"REAL_0091",
    "data_source":"Known Infrastructure Database",
    "name":"Ather Energy - Bangalore #1",
    "operator":"Ather Energy",
    "network":"Ather Energy",
    "city":"Bangalore",
    "state":"Karnataka",
    "country":"India",
    "latitude":13.0370962185,
    "longitude":77.5084441664,
    "power_kw":7.4,
    "charger_type":"AC Fast",
    "connector_type":"Type 2, Bharat AC-001",
    "access_type":"Public",
    "status":"Operational",
    "estimated_cost_per_kwh":8.0,
    "address":"Bangalore, Karnataka",
    "scraped_at":"2025-10-03 13:12:28"
  },
  {
    "station_id":"REAL_0121",
    "data_source":"Known Infrastructure Database",
    "name":"Ather Energy - Chennai #1",
    "operator":"Ather Energy",
    "network":"Ather Energy",
    "city":"Chennai",
    "state":"Tamil Nadu",
    "country":"India",
    "latitude":13.052856716,
    "longitude":80.3453348287,
    "power_kw":7.4,
    "charger_type":"AC Fast",
    "connector_type":"Type 2, Bharat AC-001",
    "access_type":"Public",
    "status":"Operational",
    "estimated_cost_per_kwh":8.0,
    "address":"Chennai, Tamil Nadu",
    "scraped_at":"2025-10-03 13:12:28"
  },
  {
    "station_id":"REAL_0146",
    "data_source":"Known Infrastructure Database",
    "name":"Ather Energy - Hyderabad #1",
    "operator":"Ather Energy",
    "network":"Ather Energy",
    "city":"Hyderabad",
    "state":"Telangana",
    "country":"India",
    "latitude":17.4636182288,
    "longitude":78.4294245825,
    "power_kw":7.4,
    "charger_type":"AC Fast",
    "connector_type":"Type 2, Bharat AC-001",
    "access_type":"Public",
    "status":"Operational",
    "estimated_cost_per_kwh":8.0,
    "address":"Hyderabad, Telangana",
    "scraped_at":"2025-10-03 13:12:28"
  },
  {
    "station_id":"REAL_0166",
    "data_source":"Known Infrastructure Database",
    "name":"Ather Energy - Mumbai #1",
    "operator":"Ather Energy",
    "network":"Ather Energy",
    "city":"Mumbai",
    "state":"Maharashtra",
    "country":"India",
    "latitude":19.1410486828,
    "longitude":72.8503348005,
    "power_kw":7.4,
    "charger_type":"AC Fast",
    "connector_type":"Type 2, Bharat AC-001",
    "access_type":"Public",
    "status":"Operational",
    "estimated_cost_per_kwh":8.0,
    "address":"Mumbai, Maharashtra",
    "scraped_at":"2025-10-03 13:12:28"
  },
  {
    "station_id":"REAL_0184",
    "data_source":"Known Infrastructure Database",
    "name":"ChargePoint - Mumbai #1",
    "operator":"ChargePoint",
    "network":"ChargePoint",
    "city":"Mumbai",
    "state":"Maharashtra",
    "country":"India",
    "latitude":18.9835963687,
    "longitude":72.9323239014,
    "power_kw":60.0,
    "charger_type":"DC Fast",
    "connector_type":"CCS, CHAdeMO",
    "access_type":"Public",
    "status":"Operational",
    "estimated_cost_per_kwh":15.0,
    "address":"Mumbai, Maharashtra",
    "scraped_at":"2025-10-03 13:12:28"
  },
  {
    "station_id":"REAL_0199",
    "data_source":"Known Infrastructure Database",
    "name":"ChargePoint - New Delhi #1",
    "operator":"ChargePoint",
    "network":"ChargePoint",
    "city":"New Delhi",
    "state":"Delhi",
    "country":"India",
    "latitude":28.6079550975,
    "longitude":77.2771159813,
    "power_kw":60.0,
    "charger_type":"DC Fast",
    "connector_type":"CCS, CHAdeMO",
    "access_type":"Public",
    "status":"Operational",
    "estimated_cost_per_kwh":15.0,
    "address":"New Delhi, Delhi",
    "scraped_at":"2025-10-03 13:12:28"
  },
  {
    "station_id":"REAL_0211",
    "data_source":"Known Infrastructure Database",
    "name":"ChargePoint - Pune #1",
    "operator":"ChargePoint",
    "network":"ChargePoint",
    "city":"Pune",
    "state":"Maharashtra",
    "country":"India",
    "latitude":18.4460640041,
    "longitude":73.9290475406,
    "power_kw":60.0,
    "charger_type":"DC Fast",
    "connector_type":"CCS, CHAdeMO",
    "access_type":"Public",
    "status":"Operational",
    "estimated_cost_per_kwh":15.0,
    "address":"Pune, Maharashtra",
    "scraped_at":"2025-10-03 13:12:28"
  },
  {
    "station_id":"REAL_0221",
    "data_source":"Known Infrastructure Database",
    "name":"Statiq - Gurgaon #1",
    "operator":"Statiq",
    "network":"Statiq",
    "city":"Gurgaon",
    "state":"Haryana",
    "country":"India",
    "latitude":28.3954867694,
    "longitude":77.1013358559,
    "power_kw":22.0,
    "charger_type":"AC Fast",
    "connector_type":"Type 2",
    "access_type":"Public",
    "status":"Operational",
    "estimated_cost_per_kwh":10.0,
    "address":"Gurgaon, Haryana",
    "scraped_at":"2025-10-03 13:12:28"
  },
  {
    "station_id":"REAL_0241",
    "data_source":"Known Infrastructure Database",
    "name":"Statiq - Noida #1",
    "operator":"Statiq",
    "network":"Statiq",
    "city":"Noida",
    "state":"Uttar Pradesh",
    "country":"India",
    "latitude":28.5847712803,
    "longitude":77.3805380569,
    "power_kw":22.0,
    "charger_type":"AC Fast",
    "connector_type":"Type 2",
    "access_type":"Public",
    "status":"Operational",
    "estimated_cost_per_kwh":10.0,
    "address":"Noida, Uttar Pradesh",
    "scraped_at":"2025-10-03 13:12:28"
  },
  {
    "station_id":"REAL_0256",
    "data_source":"Known Infrastructure Database",
    "name":"Statiq - Bangalore #1",
    "operator":"Statiq",
    "network":"Statiq",
    "city":"Bangalore",
    "state":"Karnataka",
    "country":"India",
    "latitude":13.0132796215,
    "longitude":77.6059399445,
    "power_kw":22.0,
    "charger_type":"AC Fast",
    "connector_type":"Type 2",
    "access_type":"Public",
    "status":"Operational",
    "estimated_cost_per_kwh":10.0,
    "address":"Bangalore, Karnataka",
    "scraped_at":"2025-10-03 13:12:28"
  },
  {
    "station_id":"REAL_0274",
    "data_source":"Known Infrastructure Database",
    "name":"Delhi Government - New Delhi #1",
    "operator":"Delhi Government",
    "network":"Delhi Government",
    "city":"New Delhi",
    "state":"Delhi",
    "country":"India",
    "latitude":28.5768395781,
    "longitude":77.1975026959,
    "power_kw":22.0,
    "charger_type":"AC Fast",
    "connector_type":"Type 2",
    "access_type":"Public",
    "status":"Operational",
    "estimated_cost_per_kwh":6.0,
    "address":"New Delhi, Delhi",
    "scraped_at":"2025-10-03 13:12:28"
  },
  {
    "station_id":"REAL_0309",
    "data_source":"Known Infrastructure Database",
    "name":"EESL - Various #1",
    "operator":"EESL",
    "network":"EESL",
    "city":"Various",
    "state":"Various",
    "country":"India",
    "latitude":20.6598039796,
    "longitude":78.9118000534,
    "power_kw":15.0,
    "charger_type":"AC Slow",
    "connector_type":"Type 2, Bharat AC-001",
    "access_type":"Public",
    "status":"Operational",
    "estimated_cost_per_kwh":7.0,
    "address":"Various, Various",
    "scraped_at":"2025-10-03 13:12:28"
  },
  {
    "station_id":"REAL_0349",
    "data_source":"Known Infrastructure Database",
    "name":"Magenta ChargeGrid - Mumbai #1",
    "operator":"Magenta ChargeGrid",
    "network":"Magenta ChargeGrid",
    "city":"Mumbai",
    "state":"Maharashtra",
    "country":"India",
    "latitude":19.0356960141,
    "longitude":72.8242260058,
    "power_kw":30.0,
    "charger_type":"DC Fast",
    "connector_type":"Type 2",
    "access_type":"Public",
    "status":"Operational",
    "estimated_cost_per_kwh":11.0,
    "address":"Mumbai, Maharashtra",
    "scraped_at":"2025-10-03 13:12:28"
  },
  {
    "station_id":"REAL_0361",
    "data_source":"Known Infrastructure Database",
    "name":"Bolt - Kolkata #1",
    "operator":"Bolt",
    "network":"Bolt",
    "city":"Kolkata",
    "state":"West Bengal",
    "country":"India",
    "latitude":22.5986551504,
    "longitude":88.4595983995,
    "power_kw":25.0,
    "charger_type":"AC Fast",
    "connector_type":"Type 2",
    "access_type":"Public",
    "status":"Operational",
    "estimated_cost_per_kwh":9.0,
    "address":"Kolkata, West Bengal",
    "scraped_at":"2025-10-03 13:12:28"
  },
  {
    "station_id":"REAL_0369",
    "data_source":"Known Infrastructure Database",
    "name":"Race Energy - Ahmedabad #1",
    "operator":"Race Energy",
    "network":"Race Energy",
    "city":"Ahmedabad",
    "state":"Gujarat",
    "country":"India",
    "latitude":22.9659363119,
    "longitude":72.524817244,
    "power_kw":15.0,
    "charger_type":"AC Slow",
    "connector_type":"Type 2, Bharat AC-001",
    "access_type":"Public",
    "status":"Operational",
    "estimated_cost_per_kwh":8.5,
    "address":"Ahmedabad, Gujarat",
    "scraped_at":"2025-10-03 13:12:28"
  }
]